City,Country,Date,Humidity,Lat,Lng,Max Temp,Cloudiness,Wind Speed
Avarua,CK,1638654016,83,-21.2078,-159.775,78.85,40,5.75
Punta Arenas,CL,1638653661,50,-53.15,-70.9167,55.51,40,25.32
Harper,LR,1638654020,81,4.375,-7.7169,79.9,6,8.05
Zhangjiakou,CN,1638654023,45,40.81,114.8794,28.35,0,0.27
Arraial do Cabo,BR,1638654025,69,-22.9661,-42.0278,76.96,40,10.36
Carnarvon,AU,1638654028,94,-24.8667,113.6333,69.87,0,5.75
Rikitea,PF,1638653748,71,-23.1203,-134.9692,76.06,40,10.0
Vaini,TO,1638653867,78,-21.2,-175.2,82.56,40,13.8
Busselton,AU,1638653838,68,-33.65,115.3333,56.08,1,10.65
Puerto Ayora,EC,1638653688,83,-0.7393,-90.3518,75.16,78,7.7
Bandarbeyla,SO,1638653930,67,9.4942,50.8122,75.63,23,16.58
Narsaq,GL,1638653921,74,60.9167,-46.05,43.02,100,9.6
Barrow,US,1638653865,79,71.2906,-156.7887,14.02,90,14.97
São João da Barra,BR,1638654045,80,-21.6403,-41.0511,77.09,17,7.29
Kavaratti,IN,1638654048,79,10.5669,72.642,80.58,34,7.0
Zhigansk,RU,1638654050,98,66.7697,123.3711,-15.05,100,14.47
Thompson,CA,1638653727,84,55.7435,-97.8558,-9.24,20,6.91
Snezhnogorsk,RU,1638654055,97,69.1933,33.2531,-0.04,44,6.73
Port Alfred,ZA,1638653884,95,-33.5906,26.891,68.09,100,22.93
Lishan,CN,1638654060,37,31.8576,113.2951,45.18,14,1.25
Hithadhoo,MV,1638654062,76,-0.6,73.0833,81.23,84,11.68
Saint Anthony,US,1638654065,54,45.0205,-93.218,34.14,90,1.01
Ushuaia,AR,1638653764,50,-54.8,-68.3,53.26,40,21.85
Coahuayana Viejo,MX,1638654069,62,18.7333,-103.6833,90.88,39,5.21
Oktyabr'skiy,RU,1638654072,96,54.4815,53.471,32.43,100,8.16
Cidreira,BR,1638654074,79,-30.1811,-50.2056,70.23,100,18.66
Boden,SE,1638654076,98,65.8252,21.6886,6.8,83,4.12
Longyearbyen,SJ,1638654013,73,78.2186,15.6401,19.24,75,24.16
Kalemie,CD,1638654081,74,-5.9475,29.1947,71.17,4,3.33
Dikson,RU,1638654083,100,73.5069,80.5464,-22.86,100,9.75
Souillac,MU,1638654086,83,-20.5167,57.5167,77.38,40,5.75
Khatanga,RU,1638654088,97,71.9667,102.5,-21.1,100,9.35
Lavrentiya,RU,1638653801,91,65.5833,-171.0,6.46,36,3.18
Provideniya,RU,1638654093,92,64.3833,-173.3,19.69,97,4.54
Kermanshah,IR,1638654095,80,34.3142,47.065,34.7,99,0.0
Hilo,US,1638653937,83,19.7297,-155.09,75.27,90,3.44
Cape Town,ZA,1638654100,79,-33.9258,18.4232,64.81,75,4.0
Barranca,PE,1638654102,77,-10.75,-77.7667,69.01,97,9.53
Yangi Marg`ilon,UZ,1638654104,75,40.4272,71.7189,38.62,100,4.61
Kavieng,PG,1638654108,81,-2.5744,150.7967,82.51,100,11.01
Mataura,NZ,1638653797,88,-46.1927,168.8643,54.48,100,5.82
Hobart,AU,1638653914,63,-42.8794,147.3294,58.01,40,1.99
Umm Kaddadah,SD,1638654115,23,13.6017,26.6876,73.69,0,11.27
Ericeira,PT,1638653895,89,38.9627,-9.4156,55.31,0,14.38
Mahébourg,MU,1638654121,83,-20.4081,57.7,77.29,40,5.75
Port Hardy,CA,1638654124,87,50.6996,-127.4199,41.0,75,3.44
Butaritari,KI,1638653811,78,3.0707,172.7902,83.14,18,19.55
Mount Isa,AU,1638654128,27,-20.7333,139.5,89.37,40,6.91
Petrolina,BR,1638654131,83,-9.3986,-40.5008,77.05,75,12.64
Río Gallegos,AR,1638654094,30,-51.6226,-69.2181,66.25,75,24.16
Malkara,TR,1638654135,93,40.89,26.9011,43.14,13,3.98
Turinsk,RU,1638654138,87,58.0458,63.696,34.79,100,13.44
Poum,NC,1638654140,70,-20.2333,164.0167,81.18,8,9.75
Ust-Maya,RU,1638653889,98,60.4167,134.5333,-9.99,100,4.16
Mar del Plata,AR,1638654145,78,-38.0023,-57.5575,59.02,75,11.99
São Filipe,CV,1638654147,72,14.8961,-24.4956,76.05,94,10.94
Airai,TL,1638654149,94,-8.9266,125.4092,61.41,100,0.58
Saint-Philippe,RE,1638654152,83,-21.3585,55.7679,76.55,28,10.29
Nuuk,GL,1638654139,42,64.1835,-51.7216,45.21,75,24.16
Hong Kong,HK,1638654080,66,22.2855,114.1577,65.25,97,1.99
Praia da Vitória,PT,1638654160,88,38.7333,-27.0667,63.75,75,6.31
Hejőbába,HU,1638654162,67,47.9,20.95,32.11,89,4.36
Aban,RU,1638654165,82,56.67,96.06,19.27,96,14.38
New Norfolk,AU,1638653829,49,-42.7826,147.0587,57.65,3,3.15
Kamiiso,JP,1638654169,86,41.8167,140.65,26.98,75,3.44
Artigas,UY,1638654172,40,-30.4,-56.4667,81.14,99,11.99
Le Pradet,FR,1638654174,68,43.1066,6.0172,53.67,0,21.85
Kapaa,US,1638653776,70,22.0752,-159.319,72.19,90,1.99
Prince George,CA,1638654179,84,53.9166,-122.753,26.04,90,9.22
Jamestown,US,1638654181,63,42.097,-79.2353,40.59,75,8.99
Ostrovnoy,RU,1638654183,96,68.0531,39.5131,4.06,81,7.29
East London,ZA,1638654186,95,-33.0153,27.9116,68.41,100,16.98
Nara,JP,1638654189,66,34.6851,135.8049,41.5,35,1.81
Magadan,RU,1638654192,95,59.5667,150.8,0.19,100,7.05
Lüderitz,NA,1638654194,89,-26.6481,15.1594,60.93,5,6.4
Sangar,RU,1638654196,91,63.9242,127.4739,-14.37,100,13.38
Bamiantong,CN,1638654199,87,44.9333,130.5333,4.08,9,5.75
Key West,US,1638654201,73,24.5557,-81.7826,75.99,75,9.22
Garoowe,SO,1638654204,63,8.4054,48.4845,69.13,14,11.14
Itarema,BR,1638654206,77,-2.9248,-39.9167,80.83,43,13.71
Miro Khan,PK,1638654208,24,27.7599,68.0921,55.51,3,1.32
Severo-Kuril'sk,RU,1638653831,74,50.6789,156.125,31.3,76,19.1
Seoul,KR,1638654213,74,37.5683,126.9778,29.64,0,3.44
Florianópolis,BR,1638654045,71,-27.6146,-48.5012,72.63,40,1.01
Padang,ID,1638654218,90,-0.9492,100.3543,77.05,100,1.63
Saint Paul Harbor,US,1638653759,86,57.79,-152.4072,20.71,90,0.0
Tilichiki,RU,1638654223,94,60.4667,166.1,12.61,100,10.98
Haines Junction,CA,1638654225,68,60.7522,-137.5108,-29.25,50,0.0
Pisco,PE,1638654085,73,-13.7,-76.2167,71.65,0,19.57
Touros,BR,1638654230,79,-5.1989,-35.4608,83.3,67,14.58
Lebu,CL,1638653663,71,-37.6167,-73.65,57.78,0,21.03
Los Llanos de Aridane,ES,1638654235,55,28.6585,-17.9182,62.35,75,8.01
Yar-Sale,RU,1638654237,98,66.8333,70.8333,-22.5,25,4.12
Albany,US,1638653787,67,42.6001,-73.9662,41.61,85,1.01
Kenai,US,1638654242,90,60.5544,-151.2583,8.15,90,4.61
Katsuura,JP,1638654244,61,35.1333,140.3,47.19,4,11.74
Grand Gaube,MU,1638654247,72,-20.0064,57.6608,77.4,69,1.99
Bose,IT,1638654249,78,45.4612,8.0137,39.96,5,3.09
Qaanaaq,GL,1638654251,64,77.484,-69.3632,0.46,70,7.65
Dingle,PH,1638654254,92,10.9995,122.6711,71.82,62,8.5
Schattdorf,CH,1638654256,98,46.8655,8.6547,40.41,100,4.68
Tema,GH,1638654259,83,5.667,-0.0166,82.81,40,6.91
Kumul,CN,1638654261,54,42.8,93.45,26.6,84,4.41
Bluff,NZ,1638653806,90,-46.6,168.3333,54.81,99,8.86
Anadyr,RU,1638654266,64,64.75,177.4833,-1.7,40,17.0
Ribeira Grande,PT,1638654268,88,38.5167,-28.7,63.0,75,6.91
Yellowknife,CA,1638653799,75,62.456,-114.3525,-25.58,20,8.05
Baykit,RU,1638654273,91,61.67,96.37,-4.45,96,4.54
Sitka,US,1638654275,80,57.0531,-135.33,28.29,40,5.75
Itoman,JP,1638654278,61,26.1247,127.6694,64.42,75,13.8
Sanmenxia,CN,1638654280,45,34.7747,111.1814,38.79,36,3.38
Chokurdakh,RU,1638653780,100,70.6333,147.9167,-40.54,59,2.95
Zhezkazgan,KZ,1638654285,67,47.8043,67.7144,28.45,100,8.43
Lompoc,US,1638654287,68,34.6391,-120.4579,64.11,1,6.91
Mehamn,NO,1638654290,85,71.0357,27.8492,17.8,10,20.67
Tiksi,RU,1638653790,97,71.6872,128.8694,-20.72,100,2.86
Bredasdorp,ZA,1638653886,88,-34.5322,20.0403,61.92,100,18.41
Kailua,US,1638654122,60,21.4022,-157.7394,77.74,100,10.47
Sept-Îles,CA,1638654191,66,50.2001,-66.3821,22.05,20,8.99
Caconda,AO,1638654301,96,-13.7333,15.0667,62.1,88,2.37
Bathsheba,BB,1638654303,69,13.2167,-59.5167,83.01,20,18.41
Atuona,PF,1638653776,74,-9.8,-139.0333,78.51,8,17.72
Sioux Lookout,CA,1638654308,78,50.1001,-91.917,10.78,75,11.5
Nikolskoye,RU,1638653649,94,59.7035,30.7861,14.02,99,5.73
Klyuchi,RU,1638654312,96,52.2667,79.1667,25.16,100,5.61
Leningradskiy,RU,1638654315,95,69.3833,178.4167,-17.3,94,4.65
Torbay,CA,1638654317,50,47.6666,-52.7314,31.68,75,20.71
George Town,MY,1638653698,84,5.4112,100.3354,79.9,20,1.01
Makakilo City,US,1638653846,67,21.3469,-158.0858,76.28,75,0.0
Acaraú,BR,1638654035,78,-2.8856,-40.12,80.91,42,14.5
Evensk,RU,1638654326,80,61.95,159.2333,2.5,100,10.04
Kaitangata,NZ,1638653824,79,-46.2817,169.8464,60.93,100,8.19
Faya,SA,1638654331,37,18.3851,42.4509,52.32,0,1.01
Shagonar,RU,1638654334,98,51.5333,92.8,2.17,66,2.01
Tuktoyaktuk,CA,1638653909,76,69.4541,-133.0374,-23.8,1,3.44
Enfield,AU,1638654118,62,-34.8526,138.6026,63.52,0,7.0
Tasiilaq,GL,1638653870,88,65.6145,-37.6368,28.56,100,38.68
Hasaki,JP,1638654343,60,35.7333,140.8333,37.8,4,18.01
Forsytheganj,BY,1638653848,87,52.6333,29.7333,29.71,100,9.04
Neryungri,RU,1638654347,94,56.6709,124.6491,6.85,100,4.05
Jérémie,HT,1638654350,80,18.65,-74.1167,79.29,97,1.81
Zabul Province,AF,1638654352,84,32.25,67.25,39.13,62,7.14
Huarmey,PE,1638654355,82,-10.0681,-78.1522,68.85,100,9.17
Upernavik,GL,1638653858,63,72.7868,-56.1549,21.63,100,4.72
San Quintín,MX,1638654359,73,30.4833,-115.95,63.91,8,16.08
Riyadh,SA,1638654362,28,24.6877,46.7219,55.54,5,4.0
Ballina,AU,1638654364,86,-28.8667,153.5667,71.56,90,18.41
Fonte Boa,BR,1638654367,92,-2.4959,-66.2662,78.15,92,1.79
Marsh Harbour,BS,1638654369,66,26.5412,-77.0636,75.36,6,7.09
Porto-Novo,BJ,1638654372,80,6.4965,2.6036,84.02,85,7.72
Dongzhen,CN,1638654374,42,22.3797,110.9389,53.2,62,4.12
Yerbogachën,RU,1638654376,80,61.2767,108.0108,13.48,100,14.34
Uchaly,RU,1638654379,83,54.2996,59.4521,33.46,100,18.88
Chui,UY,1638653860,85,-33.6971,-53.4616,66.24,100,8.93
Sioni,GE,1638654383,53,41.9895,45.0239,26.96,29,1.14
Muyezerskiy,RU,1638654386,94,63.9333,31.65,6.31,81,6.17
Nyrob,RU,1638654388,91,60.733,56.7202,23.43,99,6.71
Antalaha,MG,1638654391,84,-14.9003,50.2788,76.35,77,6.73
Broome,US,1638653843,57,42.2506,-75.833,43.38,1,3.0
Saint George,US,1638653816,25,37.1041,-113.5841,72.07,1,1.99
Mogadishu,SO,1638654398,74,2.0371,45.3438,79.74,32,17.76
Naze,JP,1638653942,61,28.3667,129.4833,57.99,99,8.9
Adrar,MR,1638654402,16,20.5022,-10.0711,66.43,81,11.54
Superior,US,1638654405,49,46.7208,-92.1041,32.02,1,9.22
Ust-Nera,RU,1638654407,99,64.5667,143.2,-41.78,86,4.65
Hermanus,ZA,1638654410,90,-34.4187,19.2345,63.9,100,17.65
Oarţa de Jos,RO,1638654412,80,47.45,23.1333,29.68,77,3.6
Oddur,SO,1638654415,45,4.1213,43.8894,75.56,11,10.83
Nuevo Ideal,MX,1638654417,19,24.8875,-105.0728,71.19,72,1.3
Russellville,US,1638654420,56,35.2784,-93.1338,66.97,90,4.61
Chahal Guatemala,GT,1638654422,96,15.75,-89.5667,73.17,89,2.62
Makkah al Mukarramah,SA,1638654425,72,21.4267,39.8261,73.13,0,0.29
Lindi,TZ,1638654427,91,-10.0,39.7167,75.79,100,3.38
Namatanai,PG,1638654430,74,-3.6667,152.4333,83.88,78,5.5
Meadow Lake,US,1638654432,27,34.8014,-106.5436,66.97,0,3.58
Sittwe,MM,1638654434,73,20.15,92.9,76.77,100,5.23
Ketchikan,US,1638654437,86,55.3422,-131.6461,32.47,40,5.75
Pedreiras,BR,1638654440,90,-4.5688,-44.6003,76.5,93,2.26
Tolaga Bay,NZ,1638654442,63,-38.3667,178.3,71.46,95,14.34
Samfya,ZM,1638654445,39,-11.3649,29.5565,72.34,14,5.7
Barrhead,GB,1638654447,78,55.7992,-4.3929,43.02,40,1.01
Cabras,IT,1638654449,78,39.93,8.5314,57.94,65,17.09
Ancud,CL,1638654452,62,-41.8697,-73.8203,62.13,0,3.44
Kamenka,RU,1638654454,83,51.3223,42.7678,28.74,100,3.85
Tabuk,PH,1638654457,91,17.4189,121.4443,65.95,100,4.32
Hamilton,US,1638654459,46,39.1834,-84.5333,51.24,1,1.01
Beringovskiy,RU,1638654461,98,63.05,179.3167,22.1,100,1.12
Nogliki,RU,1638654464,97,51.8333,143.1667,-5.03,45,8.19
Lake City,US,1638654466,64,30.1897,-82.6393,69.78,1,5.75
Merrill,US,1638654351,47,45.1805,-89.6835,33.57,40,10.36
Panzhihua,CN,1638654471,94,26.5851,101.7128,49.23,93,1.3
Vila Velha,BR,1638654285,76,-20.3297,-40.2925,76.95,0,1.99
Nosy Varika,MG,1638654476,91,-20.5833,48.5333,74.1,11,5.5
Te Anau,NZ,1638653904,93,-45.4167,167.7167,58.37,95,0.65
Maku,IR,1638654480,42,39.2911,44.4521,34.56,66,3.29
Bengkulu,ID,1638654483,88,-3.8004,102.2655,75.72,100,8.08
Sarangani,PH,1638654485,74,5.4033,125.4636,81.59,97,4.83
Mapiri,BO,1638654488,84,-15.25,-68.1667,75.88,100,2.48
Tarko-Sale,RU,1638654490,100,64.9225,77.785,-20.49,71,5.97
San Andrés,CO,1638654492,74,12.5847,-81.7006,84.22,75,16.11
Saldanha,ZA,1638654495,90,-33.0117,17.9442,60.85,100,6.73
Barstow,US,1638654497,23,34.8986,-117.0228,75.63,0,5.39
Vao,NC,1638654500,84,-22.6667,167.4833,76.12,80,17.38
Henties Bay,NA,1638654502,88,-22.116,14.2845,61.86,0,9.26
Matagami,CA,1638654505,85,49.7502,-77.6328,5.11,90,2.3
Houma,US,1638654283,63,29.5958,-90.7195,79.0,20,0.0
Foam Lake,CA,1638654509,89,51.65,-103.5343,24.82,100,2.66
Ust'-Kachka,RU,1638654512,76,58.006,55.6725,32.29,100,8.86
Vestmannaeyjar,IS,1638654514,63,63.4427,-20.2734,33.37,29,7.14
Norman Wells,CA,1638654517,67,65.282,-126.8329,-36.36,20,3.44
Punta Gorda,US,1638654305,61,26.9298,-82.0454,78.85,1,4.0
Zhicheng,CN,1638653944,63,30.2956,111.5047,49.14,3,2.1
Mahanoro,MG,1638654524,91,-19.9,48.8,73.6,11,4.32
Castro,BR,1638654526,55,-24.7911,-50.0119,71.1,42,5.23
Necochea,AR,1638654528,65,-38.5473,-58.7368,59.04,97,13.29
Kokkola,FI,1638654531,86,63.8385,23.1307,15.93,0,4.61
Juneau,US,1638654533,90,58.3019,-134.4197,24.85,75,4.61
Creel,MX,1638654536,23,27.75,-107.6333,61.59,92,10.74
Kahului,US,1638654538,57,20.8947,-156.47,76.26,40,14.97
Mitsamiouli,KM,1638654540,76,-11.3847,43.2844,81.12,83,11.56
Faanui,PF,1638654543,66,-16.4833,-151.75,81.39,38,14.38
Brownwood,US,1638654545,26,31.7093,-98.9912,77.0,33,5.35
Puerto Madryn,AR,1638654548,36,-42.7692,-65.0385,73.85,0,28.59
San Lorenzo,PY,1638654550,40,-25.3333,-57.5333,92.34,0,16.11
Maniitsoq,GL,1638654553,60,65.4167,-52.9,38.88,97,16.2
Jiaozuo,CN,1638654555,29,35.2397,113.2331,42.53,37,5.14
Tigil',RU,1638654557,94,57.8,158.6667,22.87,100,16.6
Pinhão,BR,1638654560,53,-25.6956,-51.6597,71.1,97,0.76
Pevek,RU,1638654562,99,69.7008,170.3133,-21.91,96,6.8
Onega,RU,1638654564,77,63.9061,38.1404,2.8,4,9.93
Vanavara,RU,1638654567,79,60.34,102.2797,12.88,100,13.98
Codrington,AU,1638654569,57,-38.2667,141.9667,55.02,10,6.91
Del Rio,US,1638654572,44,29.3627,-100.8968,82.51,1,0.0
Margate,GB,1638654574,73,51.3813,1.3862,43.03,91,3.0
Aklavik,CA,1638654577,68,68.2191,-135.0107,-19.37,1,4.61
Khorinsk,RU,1638654579,95,52.1657,109.7726,15.39,70,5.88
Okhotsk,RU,1638654582,90,59.3833,143.3,-22.65,68,11.5
Changchun,CN,1638654584,65,43.88,125.3228,24.76,0,12.37
Cockburn Town,TC,1638654536,75,21.4612,-71.1419,79.83,39,21.23
San Antonio,US,1638654475,70,29.4241,-98.4936,81.9,1,3.44
Luwuk,ID,1638654591,86,-0.9516,122.7875,78.42,94,2.86
Karlskrona,SE,1638654593,81,56.1616,15.5866,32.45,99,19.04
Endicott,US,1638654515,58,42.0984,-76.0494,43.72,1,1.01
Port Moresby,PG,1638654598,83,-9.4431,147.1797,79.09,38,3.11
Grindavik,IS,1638654600,86,63.8424,-22.4338,28.87,40,16.11
Monte Patria,CL,1638654346,25,-30.6919,-70.9467,84.67,3,6.91
Tuatapere,NZ,1638654605,96,-46.1333,167.6833,54.82,100,11.21
Geraldton,AU,1638654607,72,-28.7667,114.6,61.21,0,8.05
Bethel,US,1638654610,66,41.3712,-73.414,45.0,86,4.7
Pinotepa Nacional,MX,1638654612,48,16.3167,-98.0167,87.19,6,7.49
Vero Beach,US,1638654560,73,27.6386,-80.3973,76.05,1,3.0
Talnakh,RU,1638654617,100,69.4865,88.3972,-30.8,100,1.66
Denpasar,ID,1638654619,94,-8.65,115.2167,78.46,40,4.61
Sabang,ID,1638654622,77,5.8933,95.3214,80.64,62,7.76
Tautira,PF,1638654624,74,-17.7333,-149.15,82.42,52,13.02
North Platte,US,1638654626,57,41.1239,-100.7654,55.99,1,11.5
San Buenaventura,MX,1638654629,40,27.0833,-101.5333,84.47,90,8.16
Marovoay,MG,1638654631,74,-16.1,46.6333,78.94,18,3.06
Gornyak,RU,1638654634,99,50.9942,81.4661,19.18,87,3.87
Clyde River,CA,1638654636,85,70.4692,-68.5914,12.43,100,34.52
Russell,US,1638654638,63,32.3502,-85.1999,74.48,75,4.61
Malgrat de Mar,ES,1638654641,69,41.6466,2.7414,57.13,25,7.0
Kloulklubed,PW,1638654643,75,7.0419,134.2556,83.07,90,3.89
Phonhong,LA,1638654646,88,18.5007,102.4166,55.83,73,1.16
Otavi,NA,1638654648,22,-19.65,17.3333,70.5,41,6.06
Lorengau,PG,1638654650,77,-2.0226,147.2712,84.58,100,17.31
Cabo San Lucas,MX,1638654653,60,22.8909,-109.9124,85.51,74,5.99
Iqaluit,CA,1638654655,85,63.7506,-68.5145,6.53,90,35.68
Ponta do Sol,PT,1638654658,65,32.6667,-17.1,66.83,96,9.37
Port Elizabeth,ZA,1638654660,94,-33.918,25.5701,63.1,90,11.5
Misratah,LY,1638654662,57,32.3754,15.0925,60.31,40,16.37
Sola,VU,1638654665,84,-13.8833,167.55,83.07,40,0.0
Tello,CO,1638654667,73,3.0669,-75.1378,88.21,100,0.38
Abu Samrah,SY,1638654670,44,35.3029,37.1841,55.56,100,8.23
Altay,CN,1638654672,53,47.8667,88.1167,21.27,4,7.87
Laguna,US,1638654674,97,38.421,-121.4238,73.22,90,0.0
Kuytun,RU,1638654677,78,54.3419,101.5036,24.48,100,16.62
Narrabri,AU,1638654679,56,-30.3167,149.7833,70.52,0,19.57
Raudeberg,NO,1638654682,95,61.9875,5.1352,35.2,100,3.0
Tateyama,JP,1638654684,58,34.9833,139.8667,47.1,8,12.48
Taoudenni,ML,1638654687,20,22.6783,-3.9836,60.51,0,12.66
Hammerfest,NO,1638654689,73,70.6634,23.6821,16.25,0,2.3
Hirara,JP,1638654692,63,24.8,125.2833,66.47,40,11.5
Abnūb,EG,1638654694,29,27.2696,31.1511,64.6,45,6.69
Dharampuri,IN,1638654696,56,22.1667,75.35,69.39,38,6.33
San Francisco,US,1638654441,76,37.7749,-122.4194,63.9,20,1.99
Muroto-misakicho,JP,1638654701,64,33.2833,134.15,42.84,50,9.04
La Ligua,CL,1638654703,39,-32.4524,-71.2311,64.18,0,7.4
Buluang,PH,1638654706,88,13.3068,123.3425,71.42,42,6.4
Ashquelon,IL,1638654708,45,31.6693,34.5715,67.41,100,6.53
Cayenne,GF,1638654711,92,4.9333,-52.3333,77.04,75,1.99
Biak,ID,1638654713,84,-0.9131,122.8766,77.0,94,3.0
Hambantota,LK,1638654715,100,6.1241,81.1185,75.54,20,2.3
Izumo,JP,1638654718,87,35.3667,132.7667,42.75,75,8.05
Lagoa,PT,1638654720,83,39.05,-27.9833,63.55,84,11.05
Hay River,CA,1638654723,69,60.8156,-115.7999,-20.22,20,8.05
Jódar,ES,1638654725,85,37.8406,-3.3526,50.54,74,3.44
Alice Springs,AU,1638654728,25,-23.7,133.8833,76.55,28,8.05
Nyūzen,JP,1638654730,72,36.9333,137.5,39.02,81,3.67
Lázaro Cárdenas,MX,1638654732,68,17.9583,-102.2,82.74,29,6.44
Flin Flon,CA,1638654735,66,54.7682,-101.865,4.84,20,5.75
Santo Antônio do Içá,BR,1638654737,96,-3.1022,-67.9397,76.5,98,3.11
Bermejo,AR,1638654740,77,-32.8833,-68.8,66.11,75,6.91
Comodoro Rivadavia,AR,1638654742,28,-45.8667,-67.5,71.46,0,18.41
Fort Nelson,CA,1638654744,76,58.8053,-122.7002,-15.21,75,0.0
Zistersdorf,AT,1638654747,76,48.5333,16.75,35.47,100,7.0
Sfântu Gheorghe,RO,1638654749,91,45.8667,25.7833,35.26,70,1.32
Cherskiy,RU,1638654752,100,68.75,161.3,-35.66,45,3.22
Srednekolymsk,RU,1638654754,100,67.45,153.6833,-41.35,65,2.77
Husavik,IS,1638654756,82,66.0449,-17.3389,13.91,27,13.51
Atambua,ID,1638654759,94,-9.1061,124.8925,73.81,100,1.34
Araouane,ML,1638654761,17,18.9048,-3.5265,68.7,98,12.44
Las Vegas,US,1638654662,22,36.175,-115.1372,71.08,1,3.44
Guajará,BR,1638654766,91,-2.9667,-57.6667,76.98,61,0.92
Pangkalanbuun,ID,1638654768,97,-2.6833,111.6167,72.46,100,2.51
La Orilla,MX,1638654771,69,17.9833,-102.2333,82.49,32,6.6
Grenå,DK,1638654773,93,56.4158,10.8783,39.42,100,1.99
Ixtapa,MX,1638654776,83,20.7,-105.2,82.22,100,3.0
Ussel,FR,1638654778,98,45.55,2.3167,35.08,100,6.13
Vila Franca do Campo,PT,1638654781,85,37.7167,-25.4333,62.2,100,0.78
Diamantina,BR,1638654783,88,-18.2494,-43.6003,64.67,74,4.63
Nanchong,CN,1638654785,60,30.7951,106.0847,56.37,94,1.57
Beloha,MG,1638654788,78,-25.1667,45.05,73.71,0,1.23
Rio Grande,BR,1638654775,80,-32.035,-52.0986,73.51,96,14.56
Luganville,VU,1638654793,72,-15.5333,167.1667,81.88,98,8.08
Kudahuvadhoo,MV,1638654795,78,2.6708,72.8944,82.02,19,11.95
Berezanka,UA,1638654797,79,46.8526,31.388,32.67,56,7.16
Caravelas,BR,1638654800,83,-17.7125,-39.2481,75.24,15,5.46
Pericos,MX,1638654802,20,25.05,-107.7,93.36,89,9.78
Samarinda,ID,1638654805,98,-0.5,117.15,74.66,100,1.99
Callaguip,PH,1638654807,78,18.0714,120.4867,71.62,75,4.61
São Gonçalo dos Campos,BR,1638654810,94,-12.4333,-38.9667,71.94,93,6.55
Zelenoborskiy,RU,1638654812,98,66.845,32.3622,-0.96,36,4.43
Hannibal,US,1638654814,38,39.7084,-91.3585,49.15,42,8.9
Esperance,AU,1638654817,81,-33.8667,121.9,51.64,59,10.98
San Patricio,US,1638654819,62,28.017,-97.5169,84.29,44,12.97
Pandan,PH,1638654822,72,14.0453,124.1694,76.93,100,17.81
Ahipara,NZ,1638654824,78,-35.1667,173.1667,71.17,58,12.24
Moranbah,AU,1638654827,60,-22.0016,148.0466,80.28,0,10.13
Kushima,JP,1638654829,72,31.4583,131.2333,35.11,0,3.56
City of San Pedro,PH,1638654832,76,14.35,121.0167,72.63,20,2.3
Mudgee,AU,1638654584,72,-32.5943,149.5871,62.78,75,12.66
Bharatpur,IN,1638654836,64,27.2167,77.4833,62.89,0,1.01
Hobyo,SO,1638654839,76,5.3505,48.5268,78.69,57,14.34
Ferrol,ES,1638654841,69,43.4832,-8.2369,52.32,89,16.89
Hailar,CN,1638654844,88,49.2,119.7,12.97,39,9.57
Kielce,PL,1638654846,1,50.8703,20.6275,33.03,98,5.41
Vermilion,US,1638654849,30,40.1667,-87.7506,46.65,1,8.99
Beruwala,LK,1638654851,88,6.4788,79.9828,77.72,91,3.91
Kaniama,CD,1638654853,85,-7.5667,24.1833,68.54,66,2.68
Mookane,BW,1638654856,66,-23.688,26.6595,74.03,75,8.23
Muros,ES,1638654858,94,42.7762,-9.0603,53.24,99,13.49
Villa Bruzual,VE,1638654861,53,9.3328,-69.1208,84.87,95,4.54
Saskylakh,RU,1638654863,98,71.9167,114.0833,-19.71,100,5.61
Kalmunai,LK,1638654865,87,7.4167,81.8167,77.13,1,3.11
San Miguel de Tucumán,AR,1638654868,73,-26.8241,-65.2226,71.6,90,4.61
Bowen,AU,1638654870,67,-20.0167,148.2333,79.02,0,9.98
Palana,RU,1638654873,95,59.1167,159.9667,20.12,100,15.88
Wooster,US,1638654627,47,40.8051,-81.9351,43.95,1,11.5
Guozhen,CN,1638654877,42,34.3659,107.359,42.31,0,2.8
Ostrovskoye,RU,1638654880,91,57.8057,42.2433,9.97,97,6.22
Ust'-Kishert',RU,1638654882,95,57.3654,57.2495,32.9,100,13.13
Usinsk,RU,1638654885,83,65.9939,57.5281,-11.02,67,11.48
Camacha,PT,1638654887,59,33.0833,-16.3333,63.36,75,16.11
Fortuna,US,1638654890,97,40.5982,-124.1573,60.42,90,0.0
Wewak,PG,1638654892,91,-3.5534,143.6268,77.83,100,5.93
Resavica,RS,1638654895,94,44.0408,21.5816,34.23,73,5.21
Palmer,US,1638654897,65,42.1584,-72.3287,39.47,75,6.91
Tanout,NE,1638654899,16,14.9709,8.8879,70.47,21,12.39
Pacific Grove,US,1638654902,80,36.6177,-121.9166,65.16,40,3.0
Nanning,CN,1638654904,46,22.8167,108.3167,46.85,26,2.33
São Miguel do Araguaia,BR,1638654907,90,-13.275,-50.1628,75.94,66,4.38
Kualakapuas,ID,1638654909,97,-3.0091,114.3876,75.36,100,4.03
Pangnirtung,CA,1638654911,83,66.1451,-65.7125,17.06,100,4.47
Paka,MY,1638654914,94,4.6374,103.4368,73.33,96,2.3
Kananga,CD,1638654916,96,-5.8958,22.4178,67.82,96,1.95
Pakxan,LA,1638654919,70,18.3778,103.6601,51.44,48,4.47
Peterhead,GB,1638654921,72,57.5058,-1.7981,43.12,100,32.08
Plettenberg Bay,ZA,1638654923,94,-34.0527,23.3716,62.64,100,18.66
Korla,CN,1638654926,59,41.7597,86.1469,26.8,93,2.17
Maţāy,EG,1638654928,38,28.419,30.7792,62.31,36,8.46
Koumac,NC,1638654931,66,-20.5667,164.2833,82.33,2,1.68
Trenggalek,ID,1638654933,93,-8.05,111.7167,75.29,100,3.0
Talcahuano,CL,1638654915,49,-36.7167,-73.1167,73.08,0,19.57
The Pas,CA,1638654938,78,53.8251,-101.2541,8.62,90,5.75
Tanete,ID,1638654940,91,-3.9443,119.7848,76.44,100,2.8
Colwyn Bay,GB,1638654943,91,53.2948,-3.7267,46.47,100,18.01
Ilulissat,GL,1638654945,44,69.2167,-51.1,38.32,100,36.95
Guerrero Negro,MX,1638654948,64,27.9769,-114.0611,67.95,100,17.16
Constitución,CL,1638654950,57,-35.3333,-72.4167,66.58,3,14.03
Kokemäki,FI,1638654952,81,61.2565,22.3564,6.76,69,8.61
Freeport,US,1638654871,67,40.6576,-73.5832,46.47,95,5.01
Vychegodskiy,RU,1638654957,94,61.247,46.8984,4.62,100,8.21
Romny,UA,1638654960,87,50.751,33.4747,27.7,32,5.26
Dale,US,1638654962,51,38.1689,-86.99,56.98,56,9.98
Bagdarin,RU,1638654964,89,54.4333,113.6,10.4,99,5.68
Lichinga,MZ,1638654967,68,-13.3128,35.2406,68.09,0,10.36
Chicama,PE,1638654969,73,-7.8447,-79.1469,64.94,100,8.43
Buala,SB,1638654972,72,-8.145,159.5921,83.93,88,2.33
Dunedin,NZ,1638654891,66,-45.8742,170.5036,54.81,100,3.0
Inhambane,MZ,1638654976,90,-23.865,35.3833,77.27,0,12.08
Imbituba,BR,1638654979,79,-28.24,-48.6703,75.09,97,13.67
Yaan,NG,1638654981,29,7.3833,8.5667,81.93,69,1.45
Spencer,US,1638654984,60,43.1414,-95.1444,35.58,100,8.28
Bitkine,TD,1638654986,24,11.9801,18.2138,78.69,6,7.11
Bogandinskiy,RU,1638654989,86,56.8937,65.8938,34.07,100,15.1
Nanortalik,GL,1638654991,89,60.1432,-45.2371,35.26,98,38.54
Jaguarão,BR,1638654994,72,-32.5661,-53.3758,70.21,93,11.56
Lao Cai,VN,1638654996,80,22.4833,103.95,55.8,75,0.96
Kibala,TD,1638654998,69,9.1104,18.3463,75.15,0,0.0
Gudāri,IN,1638655001,94,19.35,83.7833,68.72,100,4.16
Coyhaique,CL,1638655003,43,-45.5752,-72.0662,69.75,75,9.22
Shaki,AZ,1638655005,53,41.0833,47.1667,32.79,3,4.23
Ila,NO,1638655008,60,63.4305,10.3705,30.22,59,5.99
Haapiti,PF,1638655010,67,-17.5667,-149.8667,82.13,43,11.95
Sechelt,CA,1638655013,75,49.4664,-123.7694,43.05,78,8.41
Isangel,VU,1638654767,79,-19.55,169.2667,84.31,75,5.75
Juba,SS,1638655017,46,4.8517,31.5825,81.0,83,0.58
Andenes,NO,1638655020,58,69.3143,16.1194,19.38,1,11.5
Whitecourt,CA,1638655010,62,54.1502,-115.6855,15.04,75,4.61
Great Falls,US,1638655025,53,47.5002,-111.3008,44.69,100,26.13
Nianzishan,CN,1638655027,91,47.5167,122.8833,11.71,33,1.57
Keti Bandar,PK,1638655029,44,24.1447,67.4497,71.35,0,8.95
Karratha,AU,1638655032,31,-20.7377,116.8463,85.01,42,13.13
Arrondissement de Nogent-le-Rotrou,FR,1638655034,88,48.3333,1.0,37.4,100,15.05
Carballo,ES,1638655037,90,43.213,-8.691,51.49,98,6.6
Yulara,AU,1638655039,43,-25.2406,130.9889,71.44,44,21.85
Bentiu,SS,1638655041,32,9.2333,29.8333,79.65,4,5.39
Stellenbosch,ZA,1638655044,85,-33.9346,18.8668,63.82,100,5.21
Nabire,ID,1638655046,90,-3.3667,135.4833,76.96,100,1.77
Salem,IN,1638655049,92,11.65,78.1667,72.46,20,0.18
Provincia di Imperia,IT,1638655051,68,43.9667,7.7833,48.99,1,5.3
Kazachinskoye,RU,1638655054,89,57.6953,93.2761,19.67,100,10.16
Kommunar,RU,1638655056,95,59.6206,30.39,13.66,98,5.37
Ponta Delgada,PT,1638655058,82,37.7333,-25.6667,62.51,40,2.3
Solginskiy,RU,1638655061,92,61.05,41.3428,2.68,100,7.02
Shache,CN,1638655063,37,38.4167,77.2406,26.91,15,1.07
Erzincan Province,TR,1638655065,51,39.75,39.5,36.88,100,3.47
Meulaboh,ID,1638655068,87,4.1363,96.1285,75.87,85,4.45
Ourinhos,BR,1638655070,34,-22.9789,-49.8706,81.88,60,5.08
Rila,BG,1638655073,87,42.1333,23.1333,40.41,32,3.33
Pahrump,US,1638654780,18,36.2083,-115.9839,71.06,0,1.01
Severo-Yeniseyskiy,RU,1638655077,88,60.3725,93.0408,4.5,100,10.36
Cap Malheureux,MU,1638655080,72,-19.9842,57.6142,77.49,64,3.0
Susanville,US,1638654896,41,40.4163,-120.653,60.8,1,3.44
Half Moon Bay,US,1638655084,76,37.4636,-122.4286,64.42,1,4.0
Taltal,CL,1638655087,64,-25.4,-70.4833,67.71,33,5.35
Bambous Virieux,MU,1638655089,83,-20.3428,57.7575,77.25,40,5.75
Palu,ID,1638655091,93,-0.8917,119.8707,75.87,100,2.33
Atoyac,MX,1638655094,23,20.0167,-103.5333,81.01,18,5.93
Deer Lake,CA,1638655096,63,49.1667,-57.4316,24.66,90,13.8
Mossamedes,AO,1638655099,70,-15.1961,12.1522,70.34,32,4.09
Saint-Joseph,RE,1638655101,81,-21.3667,55.6167,75.56,21,8.12
Gizo Government Station,SB,1638655104,75,-8.103,156.8419,83.37,86,5.06
Deputatsky,RU,1638655106,96,69.3,139.9,-38.63,55,2.15
Linjiang,CN,1638655108,95,41.8069,126.9078,6.62,20,1.12
Rørvik,NO,1638655111,68,64.8621,11.2373,25.5,8,35.28
Priargunsk,RU,1638655113,99,50.3691,119.1012,5.11,100,0.63
Vila,PT,1638655116,85,42.0304,-8.1588,44.92,45,4.99
Olinda,BR,1638655118,78,-8.0089,-34.8553,82.13,75,6.91
Ilesha,NG,1638655120,62,7.1371,5.2583,75.2,95,1.86
Jiwani,PK,1638655123,64,25.05,61.7417,75.96,0,8.14
Mlonggo,ID,1638655125,89,-6.5333,110.7,78.69,100,12.84
Takoradze,GH,1638655128,81,4.8845,-1.7554,80.89,54,7.31
Burhaniye,TR,1638655130,84,39.5004,26.9727,56.1,66,3.65
Kimbe,PG,1638655132,90,-5.5502,150.1429,77.95,100,1.61
Sironko,UG,1638655135,69,1.2313,34.2477,67.46,85,4.36
Bollnäs,SE,1638655137,83,61.3482,16.3946,21.38,94,5.93
Belaya Gora,RU,1638655140,100,68.5333,146.4167,-42.99,81,1.7
Brumunddal,NO,1638655142,97,60.881,10.9395,12.72,100,2.01
Farah,AF,1638655145,59,32.5,62.5,45.93,0,3.11
Krasnosel'kup,RU,1638655147,100,65.7,82.4667,-26.79,78,5.84
Petra,JO,1638655149,32,30.3222,35.4793,54.86,100,5.95
Vostok,RU,1638655152,94,46.4856,135.8833,-6.65,67,5.35
Port Said,EG,1638655154,52,31.2565,32.2841,67.66,100,16.11
Rundu,NA,1638655157,82,-17.9333,19.7667,69.85,99,7.54
Tazovsky,RU,1638655159,99,67.4667,78.7,-30.95,39,5.26
Balabac,PH,1638655161,86,7.9868,117.0645,77.92,89,17.05
Mahibadhoo,MV,1638655164,77,3.7833,72.9667,82.13,37,12.33
Languyan,PH,1638655166,83,5.2618,120.0807,78.85,100,12.37
Tall Kayf,TR,1638655169,32,37.0833,41.0667,50.58,100,4.61
Christchurch,NZ,1638655171,59,-43.5333,172.6333,77.0,61,3.0
Tura,IN,1638655174,74,25.5198,90.2201,65.48,100,2.64
Bara,NG,1638655176,28,10.3744,10.7288,77.74,71,8.9
Port Blair,IN,1638655179,79,11.6667,92.75,78.93,36,8.12
Chekhov,RU,1638655181,96,55.1431,37.4711,22.95,76,4.43
Nizhniy Chir,RU,1638655183,91,48.3597,43.0865,34.2,100,13.33
Kwang Binh,VN,1638655186,75,17.4833,106.6,62.2,68,11.1
Asău,RO,1638655188,81,46.4333,26.4,30.76,79,4.65
Najrān,SA,1638655191,35,17.4924,44.1277,54.25,0,1.79
Silifke,TR,1638655193,51,36.3778,33.9344,58.96,8,11.74
Poyarkovo,RU,1638655195,95,49.6,128.6833,3.58,34,5.44
Kapit,MY,1638655198,100,2.0167,112.9333,72.9,75,0.6
Jesús María,AR,1638655200,57,-30.9815,-64.0942,78.01,95,5.26
Zeya,RU,1638655203,75,53.75,127.2667,3.92,100,3.71
Taiobeiras,BR,1638655206,95,-15.8078,-42.2331,65.19,30,3.85
Champerico,GT,1638655209,63,14.3,-91.9167,91.35,0,7.54
Chegdomyn,RU,1638655211,97,51.1167,133.0167,-9.83,76,0.92
Port-Gentil,GA,1638655214,84,-0.7193,8.7815,80.35,100,12.37
Sampit,ID,1638655216,99,-2.5333,112.95,73.17,100,2.13
Ohrid,MK,1638655002,89,41.1172,20.8019,43.86,13,4.85
Labuhan,ID,1638655221,86,-6.8844,112.2051,77.43,100,11.1
Chekmagush,RU,1638655223,97,55.1319,54.6556,32.92,100,10.38
Sobolevo,RU,1638655226,89,54.4299,31.8996,27.54,100,8.1
Broken Hill,AU,1638655228,38,-31.95,141.4333,66.9,52,11.86
Ayan,RU,1638655231,67,56.45,138.1667,6.39,100,4.59
Roald,NO,1638655233,65,62.5833,6.1333,37.54,75,12.66
Djenné,ML,1638655235,13,13.9061,-4.5533,79.57,52,9.71
Sheikhpura,IN,1638655104,70,25.15,85.85,65.48,27,3.42
Griffith,US,1638654946,27,41.5284,-87.4237,42.91,1,3.0
Gondanglegi,ID,1638655242,90,-7.7479,112.0132,74.82,100,2.95
Vargashi,RU,1638655245,87,55.3556,65.8467,31.78,28,18.32
Aranos,NA,1638655248,22,-24.1333,19.1167,66.87,0,8.63
Vardø,NO,1638655250,75,70.3705,31.1107,21.22,14,23.26
Idrinskoye,RU,1638655252,93,54.3708,92.1358,6.78,55,2.26
Carutapera,BR,1638655255,84,-1.195,-46.02,78.51,97,6.69
Kampot,KH,1638655257,74,10.6167,104.1833,75.25,62,11.16
Troitskoye,RU,1638655260,98,52.9821,84.6757,19.2,99,4.25
Ko Samui,TH,1638655262,61,9.5357,99.9357,79.88,82,12.53
Pula,HR,1638655253,87,44.8683,13.8481,50.56,90,4.61
Mandalgovi,MN,1638655267,36,45.7625,106.2708,23.31,0,15.43
Carberry,CA,1638655269,86,49.8689,-99.3602,21.65,100,5.59
Finschhafen,PG,1638655272,83,-6.6024,147.8681,80.82,100,4.54
Bilma,NE,1638655274,22,18.6853,12.9164,65.23,3,12.08
Molde,NO,1638655276,69,62.7375,7.1591,37.33,75,8.05
Mumford,GH,1638655279,83,5.2618,-0.759,81.1,99,7.16
Dniprorudne,UA,1638655281,95,47.3817,34.9765,34.43,100,15.01
Albufeira,PT,1638655284,89,37.0882,-8.2503,58.84,47,8.86
Athabasca,CA,1638655181,85,54.7169,-113.2854,17.42,100,8.63
Coquimbo,CL,1638655288,74,-29.9533,-71.3436,63.57,9,7.14
Kalutara,LK,1638655291,89,6.5831,79.9593,77.09,92,3.42
Choya,RU,1638655293,98,52.0108,86.5467,21.4,91,2.35
Tucumã,BR,1638655296,88,-0.1833,-50.05,77.7,74,5.97
Cuichapa,MX,1638655298,64,18.7667,-96.8667,77.38,0,3.6
Mbanza-Ngungu,CD,1638655301,99,-5.25,14.8667,67.98,92,2.59
Hilton Head,US,1638655154,79,32.2163,-80.7526,69.01,1,4.61
Petropavlovsk-Kamchatskiy,RU,1638655305,51,53.0452,158.6483,28.99,40,17.9
Iporá,BR,1638655308,73,-16.4419,-51.1178,77.74,72,1.3
Yumen,CN,1638655310,29,40.2833,97.2,28.49,4,4.12
Great Bend,US,1638655313,52,38.3645,-98.7648,53.89,1,3.0
Lincolnton,US,1638655315,52,35.4737,-81.2545,69.66,1,0.0
Saint-Pierre,RE,1638655065,77,-21.3393,55.4781,76.64,0,4.61
Makokou,GA,1638655320,96,0.5738,12.8642,71.28,100,1.99
Kruisfontein,ZA,1638655322,94,-34.0033,24.7314,60.89,100,17.36
Riberalta,BO,1638655325,69,-10.9833,-66.1,84.92,92,0.78
Tual,ID,1638655328,82,-5.6667,132.75,81.75,100,10.74
Dingzhou,CN,1638655330,50,38.5131,114.9956,36.55,2,2.51
Dubovskoye,RU,1638655333,70,47.4092,42.7575,37.06,100,3.62
Jacareacanga,BR,1638655335,96,-6.2222,-57.7528,75.49,100,1.25
Sretensk,RU,1638655338,95,52.2453,117.7093,10.4,100,3.74
Kiboga,UG,1638655340,94,0.9161,31.7742,63.81,82,2.15
Calabozo,VE,1638655343,38,8.9242,-67.4293,88.93,51,7.05
Quatre Cocos,MU,1638655345,73,-20.2078,57.7625,77.09,59,12.77
Gemeente Wageningen,NL,1638655348,94,51.9667,5.6667,41.95,90,9.22
Batagay,RU,1638655350,93,67.6333,134.6333,-27.2,100,3.42
